{
"type": "FeatureCollection",
"name": "village_choucas",
"crs": { "type": "name", "properties": { "name": "urn:ogc:def:crs:OGC:1.3:CRS84" } },
"features": [
{ "type": "Feature", "properties": { "osm_id": "26694356", "code": 1003, "fclass": "village", "population": 6330, "name": "Varces-Allières-et-Risset" }, "geometry": { "type": "Point", "coordinates": [ 5.6825158, 45.0885562 ] } },
{ "type": "Feature", "properties": { "osm_id": "26694407", "code": 1003, "fclass": "village", "population": 4484, "name": "Saint-Laurent-du-Pont" }, "geometry": { "type": "Point", "coordinates": [ 5.7344662, 45.387632 ] } },
{ "type": "Feature", "properties": { "osm_id": "26694566", "code": 1003, "fclass": "village", "population": 7162, "name": "Pontcharra" }, "geometry": { "type": "Point", "coordinates": [ 6.0204233, 45.4327537 ] } },
{ "type": "Feature", "properties": { "osm_id": "26694615", "code": 1003, "fclass": "village", "population": 2390, "name": "Noyarey" }, "geometry": { "type": "Point", "coordinates": [ 5.6320571, 45.2439121 ] } },
{ "type": "Feature", "properties": { "osm_id": "26694642", "code": 1003, "fclass": "village", "population": 2940, "name": "Le Grand-Lemps" }, "geometry": { "type": "Point", "coordinates": [ 5.4193506, 45.3985674 ] } },
{ "type": "Feature", "properties": { "osm_id": "26694657", "code": 1003, "fclass": "village", "population": 2917, "name": "Saint-Étienne-de-Saint-Geoirs" }, "geometry": { "type": "Point", "coordinates": [ 5.3440159, 45.3398756 ] } },
{ "type": "Feature", "properties": { "osm_id": "26694764", "code": 1003, "fclass": "village", "population": 4296, "name": "Coublevie" }, "geometry": { "type": "Point", "coordinates": [ 5.616002, 45.3558251 ] } },
{ "type": "Feature", "properties": { "osm_id": "26694895", "code": 1003, "fclass": "village", "population": 3783, "name": "Allevard" }, "geometry": { "type": "Point", "coordinates": [ 6.0744406, 45.3934726 ] } },
{ "type": "Feature", "properties": { "osm_id": "26694897", "code": 1003, "fclass": "village", "population": 4566, "name": "Le Versoud" }, "geometry": { "type": "Point", "coordinates": [ 5.8603962, 45.2151366 ] } },
{ "type": "Feature", "properties": { "osm_id": "26694905", "code": 1003, "fclass": "village", "population": 9944, "name": "Eybens" }, "geometry": { "type": "Point", "coordinates": [ 5.74812, 45.1524 ] } },
{ "type": "Feature", "properties": { "osm_id": "26695058", "code": 1003, "fclass": "village", "population": 6626, "name": "Domène" }, "geometry": { "type": "Point", "coordinates": [ 5.8388954, 45.2013065 ] } },
{ "type": "Feature", "properties": { "osm_id": "26695106", "code": 1003, "fclass": "village", "population": 5357, "name": "Saint-Martin-le-Vinoux" }, "geometry": { "type": "Point", "coordinates": [ 5.7055996, 45.2088706 ] } },
{ "type": "Feature", "properties": { "osm_id": "26695114", "code": 1003, "fclass": "village", "population": 8053, "name": "Vif" }, "geometry": { "type": "Point", "coordinates": [ 5.669033, 45.0554868 ] } },
{ "type": "Feature", "properties": { "osm_id": "26695140", "code": 1003, "fclass": "village", "population": 4651, "name": "Montbonnot-Saint-Martin" }, "geometry": { "type": "Point", "coordinates": [ 5.80266, 45.2264498 ] } },
{ "type": "Feature", "properties": { "osm_id": "26695261", "code": 1003, "fclass": "village", "population": 2545, "name": "Saint-Étienne-de-Crossey" }, "geometry": { "type": "Point", "coordinates": [ 5.6473505, 45.3782404 ] } },
{ "type": "Feature", "properties": { "osm_id": "26695524", "code": 1003, "fclass": "village", "population": 3717, "name": "Renage" }, "geometry": { "type": "Point", "coordinates": [ 5.4865278, 45.331967 ] } },
{ "type": "Feature", "properties": { "osm_id": "26695575", "code": 1003, "fclass": "village", "population": 7538, "name": "Claix" }, "geometry": { "type": "Point", "coordinates": [ 5.6729013, 45.1200404 ] } },
{ "type": "Feature", "properties": { "osm_id": "26695761", "code": 1003, "fclass": "village", "population": 3327, "name": "Le Bourg-d'Oisans" }, "geometry": { "type": "Point", "coordinates": [ 6.0306625, 45.054713 ] } },
{ "type": "Feature", "properties": { "osm_id": "26695780", "code": 1003, "fclass": "village", "population": 7780, "name": "Moirans" }, "geometry": { "type": "Point", "coordinates": [ 5.5654672, 45.3259232 ] } },
{ "type": "Feature", "properties": { "osm_id": "26696015", "code": 1003, "fclass": "village", "population": 2991, "name": "Bernin" }, "geometry": { "type": "Point", "coordinates": [ 5.8664744, 45.2693836 ] } },
{ "type": "Feature", "properties": { "osm_id": "26696117", "code": 1003, "fclass": "village", "population": 3136, "name": "Champ-sur-Drac" }, "geometry": { "type": "Point", "coordinates": [ 5.729987, 45.077144 ] } },
{ "type": "Feature", "properties": { "osm_id": "26696273", "code": 1003, "fclass": "village", "population": 3533, "name": "Vaulnaveys-le-Haut" }, "geometry": { "type": "Point", "coordinates": [ 5.8129345, 45.1198654 ] } },
{ "type": "Feature", "properties": { "osm_id": "26696354", "code": 1003, "fclass": "village", "population": 2814, "name": "La Buisse" }, "geometry": { "type": "Point", "coordinates": [ 5.6203141, 45.3333031 ] } },
{ "type": "Feature", "properties": { "osm_id": "26696403", "code": 1003, "fclass": "village", "population": 3108, "name": "Apprieu" }, "geometry": { "type": "Point", "coordinates": [ 5.502492, 45.3992601 ] } },
{ "type": "Feature", "properties": { "osm_id": "26696599", "code": 1003, "fclass": "village", "population": 6062, "name": "Rives" }, "geometry": { "type": "Point", "coordinates": [ 5.5047411, 45.3501289 ] } },
{ "type": "Feature", "properties": { "osm_id": "26696892", "code": 1003, "fclass": "village", "population": 2977, "name": "Le Touvet" }, "geometry": { "type": "Point", "coordinates": [ 5.9515976, 45.3592324 ] } },
{ "type": "Feature", "properties": { "osm_id": "26696968", "code": 1003, "fclass": "village", "population": 9847, "name": "Voreppe" }, "geometry": { "type": "Point", "coordinates": [ 5.6359049, 45.2927216 ] } },
{ "type": "Feature", "properties": { "osm_id": "26697164", "code": 1003, "fclass": "village", "population": 2818, "name": "Fontanil-Cornillon" }, "geometry": { "type": "Point", "coordinates": [ 5.6654815, 45.2556949 ] } },
{ "type": "Feature", "properties": { "osm_id": "26697199", "code": 1003, "fclass": "village", "population": 3435, "name": "Froges" }, "geometry": { "type": "Point", "coordinates": [ 5.9244034, 45.273157 ] } },
{ "type": "Feature", "properties": { "osm_id": "26697253", "code": 1003, "fclass": "village", "population": 2406, "name": "Chatte" }, "geometry": { "type": "Point", "coordinates": [ 5.2815464, 45.1427126 ] } },
{ "type": "Feature", "properties": { "osm_id": "26697376", "code": 1003, "fclass": "village", "population": 4034, "name": "Villard-de-Lans" }, "geometry": { "type": "Point", "coordinates": [ 5.551536, 45.0705366 ] } },
{ "type": "Feature", "properties": { "osm_id": "26697385", "code": 1003, "fclass": "village", "population": 2799, "name": "Saint-Pierre-d'Allevard" }, "geometry": { "type": "Point", "coordinates": [ 6.0450811, 45.3739679 ] } },
{ "type": "Feature", "properties": { "osm_id": "26697433", "code": 1003, "fclass": "village", "population": 3853, "name": "Jarrie" }, "geometry": { "type": "Point", "coordinates": [ 5.7485905, 45.1053965 ] } },
{ "type": "Feature", "properties": { "osm_id": "26697565", "code": 1003, "fclass": "village", "population": 7663, "name": "Tullins" }, "geometry": { "type": "Point", "coordinates": [ 5.4829748, 45.2977714 ] } },
{ "type": "Feature", "properties": { "osm_id": "26697573", "code": 1003, "fclass": "village", "population": 7296, "name": "Villard-Bonnot" }, "geometry": { "type": "Point", "coordinates": [ 5.8882101, 45.2384678 ] } },
{ "type": "Feature", "properties": { "osm_id": "26697618", "code": 1003, "fclass": "village", "population": 6381, "name": "Saint-Ismier" }, "geometry": { "type": "Point", "coordinates": [ 5.8261521, 45.2481677 ] } },
{ "type": "Feature", "properties": { "osm_id": "26697620", "code": 1003, "fclass": "village", "population": 2078, "name": "Poisat" }, "geometry": { "type": "Point", "coordinates": [ 5.7593656, 45.1588858 ] } },
{ "type": "Feature", "properties": { "osm_id": "26697838", "code": 1003, "fclass": "village", "population": 4070, "name": "Vinay" }, "geometry": { "type": "Point", "coordinates": [ 5.4021207, 45.2098594 ] } },
{ "type": "Feature", "properties": { "osm_id": "26697841", "code": 1003, "fclass": "village", "population": 5091, "name": "La Mure" }, "geometry": { "type": "Point", "coordinates": [ 5.7871983, 44.9038429 ] } },
{ "type": "Feature", "properties": { "osm_id": "26697964", "code": 1003, "fclass": "village", "population": 7630, "name": "Vizille" }, "geometry": { "type": "Point", "coordinates": [ 5.7715863, 45.0758358 ] } },
{ "type": "Feature", "properties": { "osm_id": "26697973", "code": 1003, "fclass": "village", "population": 3090, "name": "Saint-Jean-de-Moirans" }, "geometry": { "type": "Point", "coordinates": [ 5.5818425, 45.3410803 ] } },
{ "type": "Feature", "properties": { "osm_id": "26698111", "code": 1003, "fclass": "village", "population": 6913, "name": "Seyssins" }, "geometry": { "type": "Point", "coordinates": [ 5.6878134, 45.1593057 ] } },
{ "type": "Feature", "properties": { "osm_id": "26698202", "code": 1003, "fclass": "village", "population": 6232, "name": "La Tronche" }, "geometry": { "type": "Point", "coordinates": [ 5.745715, 45.2090131 ] } },
{ "type": "Feature", "properties": { "osm_id": "26698205", "code": 1003, "fclass": "village", "population": 5446, "name": "Saint-Martin-d'Uriage" }, "geometry": { "type": "Point", "coordinates": [ 5.8383075, 45.1507233 ] } },
{ "type": "Feature", "properties": { "osm_id": "26698304", "code": 1003, "fclass": "village", "population": 3851, "name": "Corenc" }, "geometry": { "type": "Point", "coordinates": [ 5.7617836, 45.2196806 ] } },
{ "type": "Feature", "properties": { "osm_id": "26698523", "code": 1003, "fclass": "village", "population": 8451, "name": "Crolles" }, "geometry": { "type": "Point", "coordinates": [ 5.8839432, 45.2845907 ] } },
{ "type": "Feature", "properties": { "osm_id": "26698575", "code": 1003, "fclass": "village", "population": 6118, "name": "Gières" }, "geometry": { "type": "Point", "coordinates": [ 5.7904194, 45.1798245 ] } },
{ "type": "Feature", "properties": { "osm_id": "26698605", "code": 1003, "fclass": "village", "population": 2360, "name": "Biviers" }, "geometry": { "type": "Point", "coordinates": [ 5.7965125, 45.2375922 ] } },
{ "type": "Feature", "properties": { "osm_id": "34054961", "code": 1003, "fclass": "village", "population": 871, "name": "Allemont" }, "geometry": { "type": "Point", "coordinates": [ 6.0369453, 45.1310892 ] } },
{ "type": "Feature", "properties": { "osm_id": "34054970", "code": 1003, "fclass": "village", "population": 359, "name": "Auberives-en-Royans" }, "geometry": { "type": "Point", "coordinates": [ 5.30256, 45.0628 ] } },
{ "type": "Feature", "properties": { "osm_id": "34054972", "code": 1003, "fclass": "village", "population": 207, "name": "Le Grand-Châtain" }, "geometry": { "type": "Point", "coordinates": [ 6.094129, 45.0473896 ] } },
{ "type": "Feature", "properties": { "osm_id": "34054973", "code": 1003, "fclass": "village", "population": 1702, "name": "Autrans" }, "geometry": { "type": "Point", "coordinates": [ 5.54415, 45.176 ] } },
{ "type": "Feature", "properties": { "osm_id": "34054974", "code": 1003, "fclass": "village", "population": 214, "name": "Avignonet" }, "geometry": { "type": "Point", "coordinates": [ 5.6857167, 44.9546841 ] } },
{ "type": "Feature", "properties": { "osm_id": "34054980", "code": 1003, "fclass": "village", "population": 626, "name": "Beaulieu" }, "geometry": { "type": "Point", "coordinates": [ 5.3920415, 45.1925411 ] } },
{ "type": "Feature", "properties": { "osm_id": "34054982", "code": 1003, "fclass": "village", "population": 74, "name": "Beauvoir-en-Royans" }, "geometry": { "type": "Point", "coordinates": [ 5.3374745, 45.1205383 ] } },
{ "type": "Feature", "properties": { "osm_id": "34054985", "code": 1003, "fclass": "village", "population": 142, "name": "Besse" }, "geometry": { "type": "Point", "coordinates": [ 6.16986, 45.0714767 ] } },
{ "type": "Feature", "properties": { "osm_id": "34054986", "code": 1003, "fclass": "village", "population": 129, "name": "Bessins" }, "geometry": { "type": "Point", "coordinates": [ 5.2630996, 45.2033161 ] } },
{ "type": "Feature", "properties": { "osm_id": "34054988", "code": 1003, "fclass": "village", "population": 1274, "name": "Bilieu" }, "geometry": { "type": "Point", "coordinates": [ 5.55145, 45.4486 ] } },
{ "type": "Feature", "properties": { "osm_id": "34054997", "code": 1003, "fclass": "village", "population": 90, "name": "Bressieux" }, "geometry": { "type": "Point", "coordinates": [ 5.27592, 45.3229 ] } },
{ "type": "Feature", "properties": { "osm_id": "34054998", "code": 1003, "fclass": "village", "population": 692, "name": "Bresson" }, "geometry": { "type": "Point", "coordinates": [ 5.7475831, 45.1374486 ] } },
{ "type": "Feature", "properties": { "osm_id": "34055000", "code": 1003, "fclass": "village", "population": 2416, "name": "Brié-et-Angonnes" }, "geometry": { "type": "Point", "coordinates": [ 5.7853698, 45.1128816 ] } },
{ "type": "Feature", "properties": { "osm_id": "34055001", "code": 1003, "fclass": "village", "population": 130, "name": "Brion" }, "geometry": { "type": "Point", "coordinates": [ 5.33761, 45.2932 ] } },
{ "type": "Feature", "properties": { "osm_id": "34055006", "code": 1003, "fclass": "village", "population": 1256, "name": "Champagnier" }, "geometry": { "type": "Point", "coordinates": [ 5.72827, 45.1099 ] } },
{ "type": "Feature", "properties": { "osm_id": "34055011", "code": 1003, "fclass": "village", "population": 315, "name": "Chantesse" }, "geometry": { "type": "Point", "coordinates": [ 5.44466, 45.2428 ] } },
{ "type": "Feature", "properties": { "osm_id": "34055012", "code": 1003, "fclass": "village", "population": 2747, "name": "Chapareillan" }, "geometry": { "type": "Point", "coordinates": [ 5.9907289, 45.4628848 ] } },
{ "type": "Feature", "properties": { "osm_id": "34055015", "code": 1003, "fclass": "village", "population": 1784, "name": "Charavines" }, "geometry": { "type": "Point", "coordinates": [ 5.51563, 45.4276 ] } },
{ "type": "Feature", "properties": { "osm_id": "34055017", "code": 1003, "fclass": "village", "population": 1481, "name": "Charnècles" }, "geometry": { "type": "Point", "coordinates": [ 5.5275601, 45.3434957 ] } },
{ "type": "Feature", "properties": { "osm_id": "34055018", "code": 1003, "fclass": "village", "population": 431, "name": "Chasselay" }, "geometry": { "type": "Point", "coordinates": [ 5.33692, 45.2569 ] } },
{ "type": "Feature", "properties": { "osm_id": "34055020", "code": 1003, "fclass": "village", "population": 280, "name": "Château-Bernard" }, "geometry": { "type": "Point", "coordinates": [ 5.57705, 44.9755 ] } },
{ "type": "Feature", "properties": { "osm_id": "34055022", "code": 1003, "fclass": "village", "population": 87, "name": "Châtelus" }, "geometry": { "type": "Point", "coordinates": [ 5.37318, 45.0561 ] } },
{ "type": "Feature", "properties": { "osm_id": "34055026", "code": 1003, "fclass": "village", "population": 693, "name": "Chevrières" }, "geometry": { "type": "Point", "coordinates": [ 5.29036, 45.1879 ] } },
{ "type": "Feature", "properties": { "osm_id": "34055029", "code": 1003, "fclass": "village", "population": 274, "name": "Chichilianne" }, "geometry": { "type": "Point", "coordinates": [ 5.57362, 44.8116 ] } },
{ "type": "Feature", "properties": { "osm_id": "34055031", "code": 1003, "fclass": "village", "population": 2197, "name": "Chirens" }, "geometry": { "type": "Point", "coordinates": [ 5.55661, 45.4138 ] } },
{ "type": "Feature", "properties": { "osm_id": "34055032", "code": 1003, "fclass": "village", "population": 322, "name": "Cholonge" }, "geometry": { "type": "Point", "coordinates": [ 5.7966098, 45.002343 ] } },
{ "type": "Feature", "properties": { "osm_id": "34055034", "code": 1003, "fclass": "village", "population": 131, "name": "Choranche" }, "geometry": { "type": "Point", "coordinates": [ 5.39191, 45.0671 ] } },
{ "type": "Feature", "properties": { "osm_id": "34055037", "code": 1003, "fclass": "village", "population": 113, "name": "Clavans-le-Haut" }, "geometry": { "type": "Point", "coordinates": [ 6.1626171, 45.083317 ] } },
{ "type": "Feature", "properties": { "osm_id": "34055038", "code": 1003, "fclass": "village", "population": 510, "name": "Clelles" }, "geometry": { "type": "Point", "coordinates": [ 5.6227553, 44.827265 ] } },
{ "type": "Feature", "properties": { "osm_id": "34055040", "code": 1003, "fclass": "village", "population": 656, "name": "Cognin-les-Gorges" }, "geometry": { "type": "Point", "coordinates": [ 5.411004, 45.1708262 ] } },
{ "type": "Feature", "properties": { "osm_id": "34055041", "code": 1003, "fclass": "village", "population": 1439, "name": "Colombe" }, "geometry": { "type": "Point", "coordinates": [ 5.44912, 45.3978 ] } },
{ "type": "Feature", "properties": { "osm_id": "34055044", "code": 1003, "fclass": "village", "population": 205, "name": "Cordéac" }, "geometry": { "type": "Point", "coordinates": [ 5.84039, 44.8275 ] } },
{ "type": "Feature", "properties": { "osm_id": "34055045", "code": 1003, "fclass": "village", "population": 173, "name": "Cornillon-en-Trièves" }, "geometry": { "type": "Point", "coordinates": [ 5.71727, 44.831 ] } },
{ "type": "Feature", "properties": { "osm_id": "34055046", "code": 1003, "fclass": "village", "population": 511, "name": "Corps" }, "geometry": { "type": "Point", "coordinates": [ 5.94804, 44.818 ] } },
{ "type": "Feature", "properties": { "osm_id": "34055047", "code": 1003, "fclass": "village", "population": 359, "name": "Corrençon-en-Vercors" }, "geometry": { "type": "Point", "coordinates": [ 5.5272737, 45.031815 ] } },
{ "type": "Feature", "properties": { "osm_id": "34055051", "code": 1003, "fclass": "village", "population": 467, "name": "Cras" }, "geometry": { "type": "Point", "coordinates": [ 5.44879, 45.2682 ] } },
{ "type": "Feature", "properties": { "osm_id": "34055055", "code": 1003, "fclass": "village", "population": 121, "name": "Dionay" }, "geometry": { "type": "Point", "coordinates": [ 5.22042, 45.2033 ] } },
{ "type": "Feature", "properties": { "osm_id": "34055060", "code": 1003, "fclass": "village", "population": 496, "name": "Engins" }, "geometry": { "type": "Point", "coordinates": [ 5.6168148, 45.1805425 ] } },
{ "type": "Feature", "properties": { "osm_id": "34055061", "code": 1003, "fclass": "village", "population": 240, "name": "Entraigues" }, "geometry": { "type": "Point", "coordinates": [ 5.9490438, 44.9023909 ] } },
{ "type": "Feature", "properties": { "osm_id": "34055062", "code": 1003, "fclass": "village", "population": 1766, "name": "Entre-deux-Guiers" }, "geometry": { "type": "Point", "coordinates": [ 5.7519152, 45.4335268 ] } },
{ "type": "Feature", "properties": { "osm_id": "34055084", "code": 1003, "fclass": "village", "population": 2334, "name": "Goncelin" }, "geometry": { "type": "Point", "coordinates": [ 5.9780213, 45.3426289 ] } },
{ "type": "Feature", "properties": { "osm_id": "34055087", "code": 1003, "fclass": "village", "population": 406, "name": "Gresse-en-Vercors" }, "geometry": { "type": "Point", "coordinates": [ 5.5662216, 44.9011374 ] } },
{ "type": "Feature", "properties": { "osm_id": "34055088", "code": 1003, "fclass": "village", "population": 1343, "name": "Herbeys" }, "geometry": { "type": "Point", "coordinates": [ 5.793088, 45.1390486 ] } },
{ "type": "Feature", "properties": { "osm_id": "34055090", "code": 1003, "fclass": "village", "population": 1368, "name": "Huez" }, "geometry": { "type": "Point", "coordinates": [ 6.0596448, 45.0820855 ] } },
{ "type": "Feature", "properties": { "osm_id": "34055091", "code": 1003, "fclass": "village", "population": 176, "name": "Hurtières" }, "geometry": { "type": "Point", "coordinates": [ 5.96891, 45.2881 ] } },
{ "type": "Feature", "properties": { "osm_id": "34055092", "code": 1003, "fclass": "village", "population": 2111, "name": "Izeaux" }, "geometry": { "type": "Point", "coordinates": [ 5.4262479, 45.3327997 ] } },
{ "type": "Feature", "properties": { "osm_id": "34055093", "code": 1003, "fclass": "village", "population": 776, "name": "Izeron" }, "geometry": { "type": "Point", "coordinates": [ 5.3749509, 45.1470589 ] } },
{ "type": "Feature", "properties": { "osm_id": "34055097", "code": 1003, "fclass": "village", "population": 1091, "name": "L'Albenc" }, "geometry": { "type": "Point", "coordinates": [ 5.44097, 45.2239 ] } },
{ "type": "Feature", "properties": { "osm_id": "34055101", "code": 1003, "fclass": "village", "population": 663, "name": "La Buissière" }, "geometry": { "type": "Point", "coordinates": [ 5.97793, 45.401 ] } },
{ "type": "Feature", "properties": { "osm_id": "34055104", "code": 1003, "fclass": "village", "population": 504, "name": "La Chapelle-du-Bard" }, "geometry": { "type": "Point", "coordinates": [ 6.09529, 45.4228 ] } },
{ "type": "Feature", "properties": { "osm_id": "34055105", "code": 1003, "fclass": "village", "population": 705, "name": "La Combe-de-Lancey" }, "geometry": { "type": "Point", "coordinates": [ 5.8995138, 45.2256285 ] } },
{ "type": "Feature", "properties": { "osm_id": "34055107", "code": 1003, "fclass": "village", "population": 446, "name": "La Flachère" }, "geometry": { "type": "Point", "coordinates": [ 5.96212, 45.3966 ] } },
{ "type": "Feature", "properties": { "osm_id": "34055108", "code": 1003, "fclass": "village", "population": 297, "name": "La Forteresse" }, "geometry": { "type": "Point", "coordinates": [ 5.4031755, 45.2947696 ] } },
{ "type": "Feature", "properties": { "osm_id": "34055110", "code": 1003, "fclass": "village", "population": 114, "name": "La Garde" }, "geometry": { "type": "Point", "coordinates": [ 6.0449399, 45.0691999 ] } },
{ "type": "Feature", "properties": { "osm_id": "34055111", "code": 1003, "fclass": "village", "population": 156, "name": "La Morte" }, "geometry": { "type": "Point", "coordinates": [ 5.8536932, 45.0313973 ] } },
{ "type": "Feature", "properties": { "osm_id": "34055112", "code": 1003, "fclass": "village", "population": 1794, "name": "La Motte-d'Aveillans" }, "geometry": { "type": "Point", "coordinates": [ 5.7452701, 44.9624037 ] } },
{ "type": "Feature", "properties": { "osm_id": "34055113", "code": 1003, "fclass": "village", "population": 413, "name": "La Motte-Saint-Martin" }, "geometry": { "type": "Point", "coordinates": [ 5.7189041, 44.9487088 ] } },
{ "type": "Feature", "properties": { "osm_id": "34055114", "code": 1003, "fclass": "village", "population": 1795, "name": "La Murette" }, "geometry": { "type": "Point", "coordinates": [ 5.54209, 45.3798 ] } },
{ "type": "Feature", "properties": { "osm_id": "34055115", "code": 1003, "fclass": "village", "population": 428, "name": "La Pierre" }, "geometry": { "type": "Point", "coordinates": [ 5.94734, 45.2942 ] } },
{ "type": "Feature", "properties": { "osm_id": "34055116", "code": 1003, "fclass": "village", "population": 637, "name": "La Rivière" }, "geometry": { "type": "Point", "coordinates": [ 5.5073053, 45.2378724 ] } },
{ "type": "Feature", "properties": { "osm_id": "34055117", "code": 1003, "fclass": "village", "population": 72, "name": "La Salette-Fallavaux" }, "geometry": { "type": "Point", "coordinates": [ 5.97527, 44.8398 ] } },
{ "type": "Feature", "properties": { "osm_id": "34055118", "code": 1003, "fclass": "village", "population": 307, "name": "La Salle-en-Beaumont" }, "geometry": { "type": "Point", "coordinates": [ 5.8590501, 44.8640466 ] } },
{ "type": "Feature", "properties": { "osm_id": "34055130", "code": 1003, "fclass": "village", "population": 633, "name": "La Sône" }, "geometry": { "type": "Point", "coordinates": [ 5.278244, 45.111331 ] } },
{ "type": "Feature", "properties": { "osm_id": "34055131", "code": 1003, "fclass": "village", "population": 2374, "name": "La Terrasse" }, "geometry": { "type": "Point", "coordinates": [ 5.9309164, 45.3240258 ] } },
{ "type": "Feature", "properties": { "osm_id": "34055132", "code": 1003, "fclass": "village", "population": 382, "name": "Laffrey" }, "geometry": { "type": "Point", "coordinates": [ 5.77303, 45.0257 ] } },
{ "type": "Feature", "properties": { "osm_id": "34055133", "code": 1003, "fclass": "village", "population": 210, "name": "Lalley" }, "geometry": { "type": "Point", "coordinates": [ 5.6760294, 44.7580257 ] } },
{ "type": "Feature", "properties": { "osm_id": "34055134", "code": 1003, "fclass": "village", "population": 2557, "name": "Lans-en-Vercors" }, "geometry": { "type": "Point", "coordinates": [ 5.5891386, 45.1277768 ] } },
{ "type": "Feature", "properties": { "osm_id": "34055135", "code": 1003, "fclass": "village", "population": 962, "name": "Laval" }, "geometry": { "type": "Point", "coordinates": [ 5.93266, 45.2526 ] } },
{ "type": "Feature", "properties": { "osm_id": "34055136", "code": 1003, "fclass": "village", "population": 157, "name": "Lavaldens" }, "geometry": { "type": "Point", "coordinates": [ 5.88729, 44.9825 ] } },
{ "type": "Feature", "properties": { "osm_id": "34055137", "code": 1003, "fclass": "village", "population": 138, "name": "Lavars" }, "geometry": { "type": "Point", "coordinates": [ 5.6722672, 44.8490616 ] } },
{ "type": "Feature", "properties": { "osm_id": "34055139", "code": 1003, "fclass": "village", "population": 1250, "name": "Le Champ-près-Froges" }, "geometry": { "type": "Point", "coordinates": [ 5.9308898, 45.2789481 ] } },
{ "type": "Feature", "properties": { "osm_id": "34055140", "code": 1003, "fclass": "village", "population": 2673, "name": "Le Cheylas" }, "geometry": { "type": "Point", "coordinates": [ 5.9920438, 45.3698678 ] } },
{ "type": "Feature", "properties": { "osm_id": "34055141", "code": 1003, "fclass": "village", "population": 0, "name": "Bons" }, "geometry": { "type": "Point", "coordinates": [ 6.1154673, 45.034907 ] } },
{ "type": "Feature", "properties": { "osm_id": "34055180", "code": 1003, "fclass": "village", "population": 1887, "name": "Le Gua" }, "geometry": { "type": "Point", "coordinates": [ 5.6452749, 45.0216706 ] } },
{ "type": "Feature", "properties": { "osm_id": "34055181", "code": 1003, "fclass": "village", "population": 239, "name": "Le Monestier-du-Percy" }, "geometry": { "type": "Point", "coordinates": [ 5.658466, 44.7944354 ] } },
{ "type": "Feature", "properties": { "osm_id": "34055182", "code": 1003, "fclass": "village", "population": 222, "name": "Le Moutaret" }, "geometry": { "type": "Point", "coordinates": [ 6.08859, 45.4318 ] } },
{ "type": "Feature", "properties": { "osm_id": "34055186", "code": 1003, "fclass": "village", "population": 1072, "name": "Le Sappey-en-Chartreuse" }, "geometry": { "type": "Point", "coordinates": [ 5.7772449, 45.2599367 ] } },
{ "type": "Feature", "properties": { "osm_id": "34055188", "code": 1003, "fclass": "village", "population": 903, "name": "Les Adrets" }, "geometry": { "type": "Point", "coordinates": [ 5.96427, 45.2711 ] } },
{ "type": "Feature", "properties": { "osm_id": "34055190", "code": 1003, "fclass": "village", "population": 66, "name": "Les Côtes-de-Corps" }, "geometry": { "type": "Point", "coordinates": [ 5.91822, 44.8325 ] } },
{ "type": "Feature", "properties": { "osm_id": "34055197", "code": 1003, "fclass": "village", "population": 1969, "name": "Lumbin" }, "geometry": { "type": "Point", "coordinates": [ 5.9107644, 45.3060201 ] } },
{ "type": "Feature", "properties": { "osm_id": "34055199", "code": 1003, "fclass": "village", "population": 70, "name": "Marcieu" }, "geometry": { "type": "Point", "coordinates": [ 5.6886466, 44.9148368 ] } },
{ "type": "Feature", "properties": { "osm_id": "34055202", "code": 1003, "fclass": "village", "population": 147, "name": "Marnans" }, "geometry": { "type": "Point", "coordinates": [ 5.23649, 45.2945 ] } },
{ "type": "Feature", "properties": { "osm_id": "34055203", "code": 1003, "fclass": "village", "population": 762, "name": "Massieu" }, "geometry": { "type": "Point", "coordinates": [ 5.5952146, 45.4398 ] } },
{ "type": "Feature", "properties": { "osm_id": "34055205", "code": 1003, "fclass": "village", "population": 106, "name": "Mayres-Savel" }, "geometry": { "type": "Point", "coordinates": [ 5.72242, 44.8744 ] } },
{ "type": "Feature", "properties": { "osm_id": "34055206", "code": 1003, "fclass": "village", "population": 1350, "name": "Méaudre" }, "geometry": { "type": "Point", "coordinates": [ 5.5271394, 45.126906 ] } },
{ "type": "Feature", "properties": { "osm_id": "34055207", "code": 1003, "fclass": "village", "population": 1387, "name": "Mens" }, "geometry": { "type": "Point", "coordinates": [ 5.7508768, 44.8170544 ] } },
{ "type": "Feature", "properties": { "osm_id": "34055208", "code": 1003, "fclass": "village", "population": 496, "name": "Merlas" }, "geometry": { "type": "Point", "coordinates": [ 5.66358, 45.4451 ] } },
{ "type": "Feature", "properties": { "osm_id": "34055212", "code": 1003, "fclass": "village", "population": 375, "name": "Miribel-Lanchâtre" }, "geometry": { "type": "Point", "coordinates": [ 5.6226287, 44.9796773 ] } },
{ "type": "Feature", "properties": { "osm_id": "34055213", "code": 1003, "fclass": "village", "population": 1743, "name": "Miribel-les-Échelles" }, "geometry": { "type": "Point", "coordinates": [ 5.70816, 45.4283 ] } },
{ "type": "Feature", "properties": { "osm_id": "34055214", "code": 1003, "fclass": "village", "population": 193, "name": "Mizoën" }, "geometry": { "type": "Point", "coordinates": [ 6.1426496, 45.0500762 ] } },
{ "type": "Feature", "properties": { "osm_id": "34055217", "code": 1003, "fclass": "village", "population": 23, "name": "Monestier-d'Ambel" }, "geometry": { "type": "Point", "coordinates": [ 5.9268843, 44.7783068 ] } },
{ "type": "Feature", "properties": { "osm_id": "34055218", "code": 1003, "fclass": "village", "population": 1273, "name": "Monestier-de-Clermont" }, "geometry": { "type": "Point", "coordinates": [ 5.6358993, 44.9183482 ] } },
{ "type": "Feature", "properties": { "osm_id": "34055220", "code": 1003, "fclass": "village", "population": 1255, "name": "Mont-de-Lans" }, "geometry": { "type": "Point", "coordinates": [ 6.1296543, 45.0352956 ] } },
{ "type": "Feature", "properties": { "osm_id": "34055222", "code": 1003, "fclass": "village", "population": 265, "name": "Montagne" }, "geometry": { "type": "Point", "coordinates": [ 5.19378, 45.1417 ] } },
{ "type": "Feature", "properties": { "osm_id": "34055224", "code": 1003, "fclass": "village", "population": 526, "name": "Montaud" }, "geometry": { "type": "Point", "coordinates": [ 5.5612182, 45.2631189 ] } },
{ "type": "Feature", "properties": { "osm_id": "34055226", "code": 1003, "fclass": "village", "population": 369, "name": "Montchaboud" }, "geometry": { "type": "Point", "coordinates": [ 5.7652, 45.0953 ] } },
{ "type": "Feature", "properties": { "osm_id": "34055227", "code": 1003, "fclass": "village", "population": 478, "name": "Monteynard" }, "geometry": { "type": "Point", "coordinates": [ 5.7017388, 44.9656674 ] } },
{ "type": "Feature", "properties": { "osm_id": "34055228", "code": 1003, "fclass": "village", "population": 126, "name": "Montfalcon" }, "geometry": { "type": "Point", "coordinates": [ 5.1718161, 45.2545765 ] } },
{ "type": "Feature", "properties": { "osm_id": "34055229", "code": 1003, "fclass": "village", "population": 1588, "name": "Montferrat" }, "geometry": { "type": "Point", "coordinates": [ 5.5902, 45.4858 ] } },
{ "type": "Feature", "properties": { "osm_id": "34055233", "code": 1003, "fclass": "village", "population": 400, "name": "Morêtel-de-Mailles" }, "geometry": { "type": "Point", "coordinates": [ 6.01608, 45.3674 ] } },
{ "type": "Feature", "properties": { "osm_id": "34055234", "code": 1003, "fclass": "village", "population": 386, "name": "Morette" }, "geometry": { "type": "Point", "coordinates": [ 5.45403, 45.2853 ] } },
{ "type": "Feature", "properties": { "osm_id": "34055236", "code": 1003, "fclass": "village", "population": 874, "name": "Murianette" }, "geometry": { "type": "Point", "coordinates": [ 5.81865, 45.1913 ] } },
{ "type": "Feature", "properties": { "osm_id": "34055237", "code": 1003, "fclass": "village", "population": 381, "name": "Murinais" }, "geometry": { "type": "Point", "coordinates": [ 5.315318, 45.2125552 ] } },
{ "type": "Feature", "properties": { "osm_id": "34055238", "code": 1003, "fclass": "village", "population": 479, "name": "Nantes-en-Rattier" }, "geometry": { "type": "Point", "coordinates": [ 5.8263683, 44.9351234 ] } },
{ "type": "Feature", "properties": { "osm_id": "34055241", "code": 1003, "fclass": "village", "population": 475, "name": "Notre-Dame-de-Commiers" }, "geometry": { "type": "Point", "coordinates": [ 5.7006, 45.0091 ] } },
{ "type": "Feature", "properties": { "osm_id": "34055242", "code": 1003, "fclass": "village", "population": 499, "name": "Notre-Dame-de-l'Osier" }, "geometry": { "type": "Point", "coordinates": [ 5.4060218, 45.2380091 ] } },
{ "type": "Feature", "properties": { "osm_id": "34055243", "code": 1003, "fclass": "village", "population": 1198, "name": "Notre-Dame-de-Mésage" }, "geometry": { "type": "Point", "coordinates": [ 5.7555, 45.0713 ] } },
{ "type": "Feature", "properties": { "osm_id": "34055244", "code": 1003, "fclass": "village", "population": 542, "name": "Notre-Dame-de-Vaulx" }, "geometry": { "type": "Point", "coordinates": [ 5.7531769, 44.9883987 ] } },
{ "type": "Feature", "properties": { "osm_id": "34055246", "code": 1003, "fclass": "village", "population": 111, "name": "Oris-en-Rattier" }, "geometry": { "type": "Point", "coordinates": [ 5.87149, 44.9192 ] } },
{ "type": "Feature", "properties": { "osm_id": "34055248", "code": 1003, "fclass": "village", "population": 131, "name": "Ornon" }, "geometry": { "type": "Point", "coordinates": [ 5.9770699, 45.0480999 ] } },
{ "type": "Feature", "properties": { "osm_id": "34055249", "code": 1003, "fclass": "village", "population": 919, "name": "Oyeu" }, "geometry": { "type": "Point", "coordinates": [ 5.47507, 45.4223 ] } },
{ "type": "Feature", "properties": { "osm_id": "34055251", "code": 1003, "fclass": "village", "population": 221, "name": "Oz" }, "geometry": { "type": "Point", "coordinates": [ 6.0516231, 45.140555 ] } },
{ "type": "Feature", "properties": { "osm_id": "34055279", "code": 1003, "fclass": "village", "population": 138, "name": "Percy" }, "geometry": { "type": "Point", "coordinates": [ 5.6491038, 44.8009676 ] } },
{ "type": "Feature", "properties": { "osm_id": "34055280", "code": 1003, "fclass": "village", "population": 1333, "name": "Pierre-Châtel" }, "geometry": { "type": "Point", "coordinates": [ 5.7782634, 44.9564031 ] } },
{ "type": "Feature", "properties": { "osm_id": "34055283", "code": 1003, "fclass": "village", "population": 246, "name": "Plan" }, "geometry": { "type": "Point", "coordinates": [ 5.3926155, 45.3127154 ] } },
{ "type": "Feature", "properties": { "osm_id": "34055284", "code": 1003, "fclass": "village", "population": 1098, "name": "Poliénas" }, "geometry": { "type": "Point", "coordinates": [ 5.47147, 45.2494 ] } },
{ "type": "Feature", "properties": { "osm_id": "34055286", "code": 1003, "fclass": "village", "population": 568, "name": "Pommiers-la-Placette" }, "geometry": { "type": "Point", "coordinates": [ 5.6570645, 45.3175892 ] } },
{ "type": "Feature", "properties": { "osm_id": "34055287", "code": 1003, "fclass": "village", "population": 272, "name": "Ponsonnas" }, "geometry": { "type": "Point", "coordinates": [ 5.797845, 44.8890607 ] } },
{ "type": "Feature", "properties": { "osm_id": "34055288", "code": 1003, "fclass": "village", "population": 835, "name": "Pont-en-Royans" }, "geometry": { "type": "Point", "coordinates": [ 5.34251, 45.0622 ] } },
{ "type": "Feature", "properties": { "osm_id": "34055290", "code": 1003, "fclass": "village", "population": 163, "name": "Prébois" }, "geometry": { "type": "Point", "coordinates": [ 5.69544, 44.7884 ] } },
{ "type": "Feature", "properties": { "osm_id": "34055291", "code": 1003, "fclass": "village", "population": 99, "name": "Presles" }, "geometry": { "type": "Point", "coordinates": [ 5.38254, 45.0913 ] } },
{ "type": "Feature", "properties": { "osm_id": "34055294", "code": 1003, "fclass": "village", "population": 522, "name": "Proveysieux" }, "geometry": { "type": "Point", "coordinates": [ 5.69854, 45.2613 ] } },
{ "type": "Feature", "properties": { "osm_id": "34055295", "code": 1003, "fclass": "village", "population": 924, "name": "Quaix-en-Chartreuse" }, "geometry": { "type": "Point", "coordinates": [ 5.7178784, 45.252995 ] } },
{ "type": "Feature", "properties": { "osm_id": "34055296", "code": 1003, "fclass": "village", "population": 376, "name": "Prunières" }, "geometry": { "type": "Point", "coordinates": [ 5.7645219, 44.8932012 ] } },
{ "type": "Feature", "properties": { "osm_id": "34055297", "code": 1003, "fclass": "village", "population": 964, "name": "Réaumont" }, "geometry": { "type": "Point", "coordinates": [ 5.52792, 45.3671 ] } },
{ "type": "Feature", "properties": { "osm_id": "34055298", "code": 1003, "fclass": "village", "population": 81, "name": "Quincieu" }, "geometry": { "type": "Point", "coordinates": [ 5.3857473, 45.2752009 ] } },
{ "type": "Feature", "properties": { "osm_id": "34055299", "code": 1003, "fclass": "village", "population": 1377, "name": "Revel" }, "geometry": { "type": "Point", "coordinates": [ 5.8686599, 45.185712 ] } },
{ "type": "Feature", "properties": { "osm_id": "34055300", "code": 1003, "fclass": "village", "population": 304, "name": "Rencurel" }, "geometry": { "type": "Point", "coordinates": [ 5.47241, 45.1029 ] } },
{ "type": "Feature", "properties": { "osm_id": "34055306", "code": 1003, "fclass": "village", "population": 251, "name": "Roissard" }, "geometry": { "type": "Point", "coordinates": [ 5.6396, 44.8832 ] } },
{ "type": "Feature", "properties": { "osm_id": "34055308", "code": 1003, "fclass": "village", "population": 593, "name": "Rovon" }, "geometry": { "type": "Point", "coordinates": [ 5.46064, 45.2014 ] } },
{ "type": "Feature", "properties": { "osm_id": "34055310", "code": 1003, "fclass": "village", "population": 1300, "name": "Roybon" }, "geometry": { "type": "Point", "coordinates": [ 5.24404, 45.2594 ] } },
{ "type": "Feature", "properties": { "osm_id": "34055313", "code": 1003, "fclass": "village", "population": 371, "name": "Saint-Albin-de-Vaulserre" }, "geometry": { "type": "Point", "coordinates": [ 5.7044023, 45.503 ] } },
{ "type": "Feature", "properties": { "osm_id": "34055315", "code": 1003, "fclass": "village", "population": 326, "name": "Saint-André-en-Royans" }, "geometry": { "type": "Point", "coordinates": [ 5.3394344, 45.085425 ] } },
{ "type": "Feature", "properties": { "osm_id": "34055316", "code": 1003, "fclass": "village", "population": 116, "name": "Saint-Andéol" }, "geometry": { "type": "Point", "coordinates": [ 5.5533876, 44.9614535 ] } },
{ "type": "Feature", "properties": { "osm_id": "34055317", "code": 1003, "fclass": "village", "population": 1016, "name": "Saint-Antoine l'Abbaye" }, "geometry": { "type": "Point", "coordinates": [ 5.21699, 45.1741 ] } },
{ "type": "Feature", "properties": { "osm_id": "34055319", "code": 1003, "fclass": "village", "population": 79, "name": "Saint-Arey" }, "geometry": { "type": "Point", "coordinates": [ 5.73419, 44.8722 ] } },
{ "type": "Feature", "properties": { "osm_id": "34055320", "code": 1003, "fclass": "village", "population": 398, "name": "Saint-Appolinard" }, "geometry": { "type": "Point", "coordinates": [ 5.2628396, 45.1895162 ] } },
{ "type": "Feature", "properties": { "osm_id": "34055322", "code": 1003, "fclass": "village", "population": 1077, "name": "Saint-Aupre" }, "geometry": { "type": "Point", "coordinates": [ 5.67027, 45.3984 ] } },
{ "type": "Feature", "properties": { "osm_id": "34055324", "code": 1003, "fclass": "village", "population": 471, "name": "Saint-Barthélemy-de-Séchilienne" }, "geometry": { "type": "Point", "coordinates": [ 5.8260792, 45.0439395 ] } },
{ "type": "Feature", "properties": { "osm_id": "34055326", "code": 1003, "fclass": "village", "population": 254, "name": "Saint-Baudille-et-Pipet" }, "geometry": { "type": "Point", "coordinates": [ 5.7685483, 44.7843087 ] } },
{ "type": "Feature", "properties": { "osm_id": "34055327", "code": 1003, "fclass": "village", "population": 628, "name": "Saint-Bonnet-de-Chavagne" }, "geometry": { "type": "Point", "coordinates": [ 5.2310099, 45.1257038 ] } },
{ "type": "Feature", "properties": { "osm_id": "34055328", "code": 1003, "fclass": "village", "population": 993, "name": "Saint-Blaise-du-Buis" }, "geometry": { "type": "Point", "coordinates": [ 5.5218, 45.3788 ] } },
{ "type": "Feature", "properties": { "osm_id": "34055329", "code": 1003, "fclass": "village", "population": 1107, "name": "Saint-Cassien" }, "geometry": { "type": "Point", "coordinates": [ 5.5516356, 45.360072 ] } },
{ "type": "Feature", "properties": { "osm_id": "34055330", "code": 1003, "fclass": "village", "population": 700, "name": "Saint-Bueil" }, "geometry": { "type": "Point", "coordinates": [ 5.6906003, 45.4800151 ] } },
{ "type": "Feature", "properties": { "osm_id": "34055331", "code": 1003, "fclass": "village", "population": 798, "name": "Saint-Christophe-sur-Guiers" }, "geometry": { "type": "Point", "coordinates": [ 5.77337, 45.439 ] } },
{ "type": "Feature", "properties": { "osm_id": "34055332", "code": 1003, "fclass": "village", "population": 114, "name": "Saint-Christophe-en-Oisans" }, "geometry": { "type": "Point", "coordinates": [ 6.1763805, 44.9576485 ] } },
{ "type": "Feature", "properties": { "osm_id": "34055335", "code": 1003, "fclass": "village", "population": 2402, "name": "Saint-Geoire-en-Valdaine" }, "geometry": { "type": "Point", "coordinates": [ 5.6355662, 45.4563548 ] } },
{ "type": "Feature", "properties": { "osm_id": "34055337", "code": 1003, "fclass": "village", "population": 2092, "name": "Saint-Georges-de-Commiers" }, "geometry": { "type": "Point", "coordinates": [ 5.7040065, 45.0382653 ] } },
{ "type": "Feature", "properties": { "osm_id": "34055338", "code": 1003, "fclass": "village", "population": 497, "name": "Saint-Geoirs" }, "geometry": { "type": "Point", "coordinates": [ 5.35384, 45.3222 ] } },
{ "type": "Feature", "properties": { "osm_id": "34055339", "code": 1003, "fclass": "village", "population": 282, "name": "Saint-Guillaume" }, "geometry": { "type": "Point", "coordinates": [ 5.58933, 44.9548 ] } },
{ "type": "Feature", "properties": { "osm_id": "34055340", "code": 1003, "fclass": "village", "population": 574, "name": "Saint-Gervais" }, "geometry": { "type": "Point", "coordinates": [ 5.4820229, 45.2022356 ] } },
{ "type": "Feature", "properties": { "osm_id": "34055343", "code": 1003, "fclass": "village", "population": 1987, "name": "Saint-Hilaire-du-Rosier" }, "geometry": { "type": "Point", "coordinates": [ 5.2474528, 45.099615 ] } },
{ "type": "Feature", "properties": { "osm_id": "34055345", "code": 1003, "fclass": "village", "population": 901, "name": "Saint-Jean-d'Avelanne" }, "geometry": { "type": "Point", "coordinates": [ 5.6646933, 45.4987614 ] } },
{ "type": "Feature", "properties": { "osm_id": "34055346", "code": 1003, "fclass": "village", "population": 814, "name": "Saint-Honoré" }, "geometry": { "type": "Point", "coordinates": [ 5.7957206, 44.9420422 ] } },
{ "type": "Feature", "properties": { "osm_id": "34055349", "code": 1003, "fclass": "village", "population": 243, "name": "Saint-Jean-le-Vieux" }, "geometry": { "type": "Point", "coordinates": [ 5.88119, 45.21 ] } },
{ "type": "Feature", "properties": { "osm_id": "34055350", "code": 1003, "fclass": "village", "population": 552, "name": "Saint-Jean-de-Vaulx" }, "geometry": { "type": "Point", "coordinates": [ 5.7585, 45.0126 ] } },
{ "type": "Feature", "properties": { "osm_id": "34055352", "code": 1003, "fclass": "village", "population": 1145, "name": "Saint-Joseph-de-Rivière" }, "geometry": { "type": "Point", "coordinates": [ 5.6973975, 45.3749688 ] } },
{ "type": "Feature", "properties": { "osm_id": "34055354", "code": 1003, "fclass": "village", "population": 434, "name": "Saint-Julien-de-Ratz" }, "geometry": { "type": "Point", "coordinates": [ 5.662661, 45.3501712 ] } },
{ "type": "Feature", "properties": { "osm_id": "34055355", "code": 1003, "fclass": "village", "population": 1265, "name": "Saint-Lattier" }, "geometry": { "type": "Point", "coordinates": [ 5.2014063, 45.0877308 ] } },
{ "type": "Feature", "properties": { "osm_id": "34055356", "code": 1003, "fclass": "village", "population": 1219, "name": "Saint-Just-de-Claix" }, "geometry": { "type": "Point", "coordinates": [ 5.28332, 45.0748 ] } },
{ "type": "Feature", "properties": { "osm_id": "34055358", "code": 1003, "fclass": "village", "population": 444, "name": "Saint-Laurent-en-Beaumont" }, "geometry": { "type": "Point", "coordinates": [ 5.84949, 44.878 ] } },
{ "type": "Feature", "properties": { "osm_id": "34055359", "code": 1003, "fclass": "village", "population": 607, "name": "Saint-Martin-de-la-Cluze" }, "geometry": { "type": "Point", "coordinates": [ 5.6597782, 44.9832607 ] } },
{ "type": "Feature", "properties": { "osm_id": "34055360", "code": 1003, "fclass": "village", "population": 160, "name": "Saint-Martin-de-Clelles" }, "geometry": { "type": "Point", "coordinates": [ 5.6201, 44.8451 ] } },
{ "type": "Feature", "properties": { "osm_id": "34055361", "code": 1003, "fclass": "village", "population": 168, "name": "Saint-Maurice-en-Trièves" }, "geometry": { "type": "Point", "coordinates": [ 5.6639296, 44.7644738 ] } },
{ "type": "Feature", "properties": { "osm_id": "34055362", "code": 1003, "fclass": "village", "population": 254, "name": "Saint-Martin-de-Vaulserre" }, "geometry": { "type": "Point", "coordinates": [ 5.68281, 45.494 ] } },
{ "type": "Feature", "properties": { "osm_id": "34055363", "code": 1003, "fclass": "village", "population": 293, "name": "Saint-Michel-de-Saint-Geoirs" }, "geometry": { "type": "Point", "coordinates": [ 5.35522, 45.305 ] } },
{ "type": "Feature", "properties": { "osm_id": "34055364", "code": 1003, "fclass": "village", "population": 641, "name": "Saint-Maximin" }, "geometry": { "type": "Point", "coordinates": [ 6.0379267, 45.429342 ] } },
{ "type": "Feature", "properties": { "osm_id": "34055365", "code": 1003, "fclass": "village", "population": 349, "name": "Saint-Mury-Monteymond" }, "geometry": { "type": "Point", "coordinates": [ 5.92682, 45.2262 ] } },
{ "type": "Feature", "properties": { "osm_id": "34055366", "code": 1003, "fclass": "village", "population": 248, "name": "Saint-Michel-les-Portes" }, "geometry": { "type": "Point", "coordinates": [ 5.5948534, 44.8690439 ] } },
{ "type": "Feature", "properties": { "osm_id": "34055367", "code": 1003, "fclass": "village", "population": 887, "name": "Saint-Nicolas-de-Macherin" }, "geometry": { "type": "Point", "coordinates": [ 5.60626, 45.3987 ] } },
{ "type": "Feature", "properties": { "osm_id": "34055368", "code": 1003, "fclass": "village", "population": 2907, "name": "Saint-Nazaire-les-Eymes" }, "geometry": { "type": "Point", "coordinates": [ 5.8490243, 45.2566002 ] } },
{ "type": "Feature", "properties": { "osm_id": "34055370", "code": 1003, "fclass": "village", "population": 1030, "name": "Saint-Nizier-du-Moucherotte" }, "geometry": { "type": "Point", "coordinates": [ 5.6296649, 45.1706954 ] } },
{ "type": "Feature", "properties": { "osm_id": "34055371", "code": 1003, "fclass": "village", "population": 314, "name": "Saint-Paul-d'Izeaux" }, "geometry": { "type": "Point", "coordinates": [ 5.4288885, 45.3164943 ] } },
{ "type": "Feature", "properties": { "osm_id": "34055374", "code": 1003, "fclass": "village", "population": 2167, "name": "Saint-Paul-de-Varces" }, "geometry": { "type": "Point", "coordinates": [ 5.6428518, 45.0716067 ] } },
{ "type": "Feature", "properties": { "osm_id": "34055375", "code": 1003, "fclass": "village", "population": 1011, "name": "Saint-Pierre-de-Chartreuse" }, "geometry": { "type": "Point", "coordinates": [ 5.8146864, 45.3422689 ] } },
{ "type": "Feature", "properties": { "osm_id": "34055376", "code": 1003, "fclass": "village", "population": 684, "name": "Saint-Pierre-de-Bressieux" }, "geometry": { "type": "Point", "coordinates": [ 5.2838227, 45.315408 ] } },
{ "type": "Feature", "properties": { "osm_id": "34055377", "code": 1003, "fclass": "village", "population": 137, "name": "Saint-Pierre-de-Méaroz" }, "geometry": { "type": "Point", "coordinates": [ 5.8238, 44.8749 ] } },
{ "type": "Feature", "properties": { "osm_id": "34055379", "code": 1003, "fclass": "village", "population": 476, "name": "Saint-Pierre-de-Chérennes" }, "geometry": { "type": "Point", "coordinates": [ 5.3621871, 45.121138 ] } },
{ "type": "Feature", "properties": { "osm_id": "34055381", "code": 1003, "fclass": "village", "population": 719, "name": "Saint-Pierre-de-Mésage" }, "geometry": { "type": "Point", "coordinates": [ 5.76409, 45.0507 ] } },
{ "type": "Feature", "properties": { "osm_id": "34055383", "code": 1003, "fclass": "village", "population": 1311, "name": "Saint-Quentin-sur-Isère" }, "geometry": { "type": "Point", "coordinates": [ 5.5471257, 45.2813748 ] } },
{ "type": "Feature", "properties": { "osm_id": "34055385", "code": 1003, "fclass": "village", "population": 1927, "name": "Saint-Sauveur" }, "geometry": { "type": "Point", "coordinates": [ 5.3425597, 45.1522128 ] } },
{ "type": "Feature", "properties": { "osm_id": "34055386", "code": 1003, "fclass": "village", "population": 1742, "name": "Saint-Romans" }, "geometry": { "type": "Point", "coordinates": [ 5.32627, 45.1127 ] } },
{ "type": "Feature", "properties": { "osm_id": "34055388", "code": 1003, "fclass": "village", "population": 255, "name": "Saint-Sébastien" }, "geometry": { "type": "Point", "coordinates": [ 5.79991, 44.8472 ] } },
{ "type": "Feature", "properties": { "osm_id": "34055389", "code": 1003, "fclass": "village", "population": 450, "name": "Saint-Sulpice-des-Rivoires" }, "geometry": { "type": "Point", "coordinates": [ 5.60961, 45.4705 ] } },
{ "type": "Feature", "properties": { "osm_id": "34055392", "code": 1003, "fclass": "village", "population": 1823, "name": "Saint-Vérand" }, "geometry": { "type": "Point", "coordinates": [ 5.3329287, 45.1738392 ] } },
{ "type": "Feature", "properties": { "osm_id": "34055393", "code": 1003, "fclass": "village", "population": 449, "name": "Saint-Théoffrey" }, "geometry": { "type": "Point", "coordinates": [ 5.7722554, 44.9891848 ] } },
{ "type": "Feature", "properties": { "osm_id": "34055396", "code": 1003, "fclass": "village", "population": 537, "name": "Sainte-Agnès" }, "geometry": { "type": "Point", "coordinates": [ 5.9246904, 45.2364294 ] } },
{ "type": "Feature", "properties": { "osm_id": "34055398", "code": 1003, "fclass": "village", "population": 1408, "name": "Saint-Vincent-de-Mercuze" }, "geometry": { "type": "Point", "coordinates": [ 5.95104, 45.373 ] } },
{ "type": "Feature", "properties": { "osm_id": "34055402", "code": 1003, "fclass": "village", "population": 553, "name": "Sainte-Marie-d'Alloix" }, "geometry": { "type": "Point", "coordinates": [ 5.9668316, 45.3796447 ] } },
{ "type": "Feature", "properties": { "osm_id": "34055403", "code": 1003, "fclass": "village", "population": 197, "name": "Sarcenas" }, "geometry": { "type": "Point", "coordinates": [ 5.7584755, 45.2735196 ] } },
{ "type": "Feature", "properties": { "osm_id": "34055408", "code": 1003, "fclass": "village", "population": 927, "name": "Séchilienne" }, "geometry": { "type": "Point", "coordinates": [ 5.8346974, 45.0538425 ] } },
{ "type": "Feature", "properties": { "osm_id": "34055426", "code": 1003, "fclass": "village", "population": 297, "name": "Serre-Nerpol" }, "geometry": { "type": "Point", "coordinates": [ 5.3755, 45.2582 ] } },
{ "type": "Feature", "properties": { "osm_id": "34055430", "code": 1003, "fclass": "village", "population": 1860, "name": "Sillans" }, "geometry": { "type": "Point", "coordinates": [ 5.3915, 45.343098 ] } },
{ "type": "Feature", "properties": { "osm_id": "34055431", "code": 1003, "fclass": "village", "population": 121, "name": "Siévoz" }, "geometry": { "type": "Point", "coordinates": [ 5.8402047, 44.9027908 ] } },
{ "type": "Feature", "properties": { "osm_id": "34055433", "code": 1003, "fclass": "village", "population": 639, "name": "Sinard" }, "geometry": { "type": "Point", "coordinates": [ 5.6556143, 44.9458031 ] } },
{ "type": "Feature", "properties": { "osm_id": "34055434", "code": 1003, "fclass": "village", "population": 149, "name": "Sousville" }, "geometry": { "type": "Point", "coordinates": [ 5.8077463, 44.913403 ] } },
{ "type": "Feature", "properties": { "osm_id": "34055436", "code": 1003, "fclass": "village", "population": 1400, "name": "Susville" }, "geometry": { "type": "Point", "coordinates": [ 5.7814435, 44.9180779 ] } },
{ "type": "Feature", "properties": { "osm_id": "34055438", "code": 1003, "fclass": "village", "population": 1222, "name": "Tencin" }, "geometry": { "type": "Point", "coordinates": [ 5.9577176, 45.3082543 ] } },
{ "type": "Feature", "properties": { "osm_id": "34055439", "code": 1003, "fclass": "village", "population": 560, "name": "Têche" }, "geometry": { "type": "Point", "coordinates": [ 5.38048, 45.1827 ] } },
{ "type": "Feature", "properties": { "osm_id": "34055444", "code": 1003, "fclass": "village", "population": 173, "name": "Tréminis" }, "geometry": { "type": "Point", "coordinates": [ 5.7680634, 44.7465446 ] } },
{ "type": "Feature", "properties": { "osm_id": "34055445", "code": 1003, "fclass": "village", "population": 245, "name": "Treffort" }, "geometry": { "type": "Point", "coordinates": [ 5.65825, 44.9156 ] } },
{ "type": "Feature", "properties": { "osm_id": "34055446", "code": 1003, "fclass": "village", "population": 500, "name": "Valbonnais" }, "geometry": { "type": "Point", "coordinates": [ 5.9046952, 44.900004 ] } },
{ "type": "Feature", "properties": { "osm_id": "34055450", "code": 1003, "fclass": "village", "population": 826, "name": "Varacieux" }, "geometry": { "type": "Point", "coordinates": [ 5.33743, 45.2327 ] } },
{ "type": "Feature", "properties": { "osm_id": "34055451", "code": 1003, "fclass": "village", "population": 148, "name": "Valjouffrey" }, "geometry": { "type": "Point", "coordinates": [ 6.0182548, 44.8804965 ] } },
{ "type": "Feature", "properties": { "osm_id": "34055452", "code": 1003, "fclass": "village", "population": 385, "name": "Vatilieu" }, "geometry": { "type": "Point", "coordinates": [ 5.4102995, 45.2565626 ] } },
{ "type": "Feature", "properties": { "osm_id": "34055454", "code": 1003, "fclass": "village", "population": 1174, "name": "Vaulnaveys-le-Bas" }, "geometry": { "type": "Point", "coordinates": [ 5.80679, 45.1072 ] } },
{ "type": "Feature", "properties": { "osm_id": "34055455", "code": 1003, "fclass": "village", "population": 345, "name": "Vaujany" }, "geometry": { "type": "Point", "coordinates": [ 6.078412, 45.1576422 ] } },
{ "type": "Feature", "properties": { "osm_id": "34055457", "code": 1003, "fclass": "village", "population": 495, "name": "Velanne" }, "geometry": { "type": "Point", "coordinates": [ 5.64853, 45.49 ] } },
{ "type": "Feature", "properties": { "osm_id": "34055459", "code": 1003, "fclass": "village", "population": 722, "name": "Venon" }, "geometry": { "type": "Point", "coordinates": [ 5.8052622, 45.1724842 ] } },
{ "type": "Feature", "properties": { "osm_id": "34055462", "code": 1003, "fclass": "village", "population": 1417, "name": "Veurey-Voroize" }, "geometry": { "type": "Point", "coordinates": [ 5.61271, 45.2722019 ] } },
{ "type": "Feature", "properties": { "osm_id": "34055468", "code": 1003, "fclass": "village", "population": 374, "name": "Villard-Saint-Christophe" }, "geometry": { "type": "Point", "coordinates": [ 5.8052185, 44.978896 ] } },
{ "type": "Feature", "properties": { "osm_id": "34055469", "code": 1003, "fclass": "village", "population": 62, "name": "Villard-Reculas" }, "geometry": { "type": "Point", "coordinates": [ 6.0313171, 45.0914971 ] } },
{ "type": "Feature", "properties": { "osm_id": "34055476", "code": 1003, "fclass": "village", "population": 205, "name": "Voissant" }, "geometry": { "type": "Point", "coordinates": [ 5.71013, 45.4843 ] } },
{ "type": "Feature", "properties": { "osm_id": "34055477", "code": 1003, "fclass": "village", "population": 1578, "name": "Vourey" }, "geometry": { "type": "Point", "coordinates": [ 5.5204498, 45.3188331 ] } },
{ "type": "Feature", "properties": { "osm_id": "41645744", "code": 1003, "fclass": "village", "population": 559, "name": "Saint-Pierre-d'Entremont" }, "geometry": { "type": "Point", "coordinates": [ 5.8542069, 45.415693 ] } },
{ "type": "Feature", "properties": { "osm_id": "93777137", "code": 1003, "fclass": "village", "population": 0, "name": "Livet" }, "geometry": { "type": "Point", "coordinates": [ 5.9338663, 45.1083341 ] } },
{ "type": "Feature", "properties": { "osm_id": "246644219", "code": 1003, "fclass": "village", "population": 51, "name": "Malleval-en-Vercors" }, "geometry": { "type": "Point", "coordinates": [ 5.43765, 45.1475014 ] } },
{ "type": "Feature", "properties": { "osm_id": "253618486", "code": 1003, "fclass": "village", "population": 0, "name": "Les Deux Alpes" }, "geometry": { "type": "Point", "coordinates": [ 6.1237609, 45.0099949 ] } },
{ "type": "Feature", "properties": { "osm_id": "470316783", "code": 1003, "fclass": "village", "population": 0, "name": "Les Théneaux" }, "geometry": { "type": "Point", "coordinates": [ 5.7829917, 44.9831634 ] } },
{ "type": "Feature", "properties": { "osm_id": "470316920", "code": 1003, "fclass": "village", "population": 0, "name": "Fugières" }, "geometry": { "type": "Point", "coordinates": [ 5.8070169, 44.9543426 ] } },
{ "type": "Feature", "properties": { "osm_id": "475545308", "code": 1003, "fclass": "village", "population": 12, "name": "Oulles" }, "geometry": { "type": "Point", "coordinates": [ 5.9823811, 45.0739889 ] } },
{ "type": "Feature", "properties": { "osm_id": "495555549", "code": 1003, "fclass": "village", "population": 0, "name": "Brignoud" }, "geometry": { "type": "Point", "coordinates": [ 5.908406, 45.2581552 ] } },
{ "type": "Feature", "properties": { "osm_id": "623971376", "code": 1003, "fclass": "village", "population": 40, "name": "Sainte-Luce" }, "geometry": { "type": "Point", "coordinates": [ 5.911998, 44.8499693 ] } },
{ "type": "Feature", "properties": { "osm_id": "623987684", "code": 1003, "fclass": "village", "population": 0, "name": "Auris en Oisans" }, "geometry": { "type": "Point", "coordinates": [ 6.0771511, 45.0543486 ] } },
{ "type": "Feature", "properties": { "osm_id": "624027794", "code": 1003, "fclass": "village", "population": 0, "name": "L'Alpe d'Huez" }, "geometry": { "type": "Point", "coordinates": [ 6.0699443, 45.092401 ] } },
{ "type": "Feature", "properties": { "osm_id": "877555752", "code": 1003, "fclass": "village", "population": 0, "name": "Montfort" }, "geometry": { "type": "Point", "coordinates": [ 5.8995952, 45.2983345 ] } },
{ "type": "Feature", "properties": { "osm_id": "960232636", "code": 1003, "fclass": "village", "population": 73, "name": "La Valette" }, "geometry": { "type": "Point", "coordinates": [ 5.8548466, 44.9413712 ] } },
{ "type": "Feature", "properties": { "osm_id": "963046396", "code": 1003, "fclass": "village", "population": 88, "name": "Mont-Saint-Martin" }, "geometry": { "type": "Point", "coordinates": [ 5.6743557, 45.2712291 ] } },
{ "type": "Feature", "properties": { "osm_id": "968672033", "code": 1003, "fclass": "village", "population": 35, "name": "Villard-Reymond" }, "geometry": { "type": "Point", "coordinates": [ 6.0184796, 45.0332345 ] } },
{ "type": "Feature", "properties": { "osm_id": "1069963508", "code": 1003, "fclass": "village", "population": 22, "name": "Beaufin" }, "geometry": { "type": "Point", "coordinates": [ 5.9606917, 44.7886092 ] } },
{ "type": "Feature", "properties": { "osm_id": "1069963536", "code": 1003, "fclass": "village", "population": 23, "name": "Ambel" }, "geometry": { "type": "Point", "coordinates": [ 5.9302851, 44.8054214 ] } },
{ "type": "Feature", "properties": { "osm_id": "1071222366", "code": 1003, "fclass": "village", "population": 25, "name": "Villard-Notre-Dame" }, "geometry": { "type": "Point", "coordinates": [ 6.0435589, 45.0193734 ] } },
{ "type": "Feature", "properties": { "osm_id": "1116183740", "code": 1003, "fclass": "village", "population": 1226, "name": "Rioupéroux" }, "geometry": { "type": "Point", "coordinates": [ 5.9035215, 45.0923388 ] } },
{ "type": "Feature", "properties": { "osm_id": "1182497748", "code": 1003, "fclass": "village", "population": 0, "name": "Fures" }, "geometry": { "type": "Point", "coordinates": [ 5.4979895, 45.3077149 ] } },
{ "type": "Feature", "properties": { "osm_id": "1200316430", "code": 1003, "fclass": "village", "population": 0, "name": "Le Perrier" }, "geometry": { "type": "Point", "coordinates": [ 5.7325474, 44.7815601 ] } },
{ "type": "Feature", "properties": { "osm_id": "1238926799", "code": 1003, "fclass": "village", "population": 0, "name": "Le Recoin" }, "geometry": { "type": "Point", "coordinates": [ 5.8769694, 45.126209 ] } },
{ "type": "Feature", "properties": { "osm_id": "1238940013", "code": 1003, "fclass": "village", "population": 0, "name": "Roche Béranger" }, "geometry": { "type": "Point", "coordinates": [ 5.8759265, 45.1128448 ] } },
{ "type": "Feature", "properties": { "osm_id": "1573263926", "code": 1003, "fclass": "village", "population": 260, "name": "Saint-Paul-lès-Monestier" }, "geometry": { "type": "Point", "coordinates": [ 5.6276912, 44.9284113 ] } },
{ "type": "Feature", "properties": { "osm_id": "1699718907", "code": 1003, "fclass": "village", "population": 50, "name": "Cognet" }, "geometry": { "type": "Point", "coordinates": [ 5.7772476, 44.8812146 ] } },
{ "type": "Feature", "properties": { "osm_id": "1704305794", "code": 1003, "fclass": "village", "population": 1477, "name": "Beaucroissant" }, "geometry": { "type": "Point", "coordinates": [ 5.4704161, 45.3408508 ] } },
{ "type": "Feature", "properties": { "osm_id": "1704330553", "code": 1003, "fclass": "village", "population": 37, "name": "Saint-Michel-en-Beaumont" }, "geometry": { "type": "Point", "coordinates": [ 5.8996822, 44.8673417 ] } },
{ "type": "Feature", "properties": { "osm_id": "1704344634", "code": 1003, "fclass": "village", "population": 64, "name": "Quet-en-Beaumont" }, "geometry": { "type": "Point", "coordinates": [ 5.8739544, 44.8341636 ] } },
{ "type": "Feature", "properties": { "osm_id": "2035543371", "code": 1003, "fclass": "village", "population": 265, "name": "Le Freney-d'Oisans" }, "geometry": { "type": "Point", "coordinates": [ 6.127018, 45.0457481 ] } },
{ "type": "Feature", "properties": { "osm_id": "2386923881", "code": 1003, "fclass": "village", "population": 1862, "name": "Barraux" }, "geometry": { "type": "Point", "coordinates": [ 5.9773523, 45.4337691 ] } },
{ "type": "Feature", "properties": { "osm_id": "2411519195", "code": 1003, "fclass": "village", "population": 0, "name": "Vénosc" }, "geometry": { "type": "Point", "coordinates": [ 6.1159627, 44.9902376 ] } },
{ "type": "Feature", "properties": { "osm_id": "2461515699", "code": 1003, "fclass": "village", "population": 0, "name": "Cuculet" }, "geometry": { "type": "Point", "coordinates": [ 6.1449842, 45.0364789 ] } },
{ "type": "Feature", "properties": { "osm_id": "3141466926", "code": 1003, "fclass": "village", "population": 1994, "name": "Theys" }, "geometry": { "type": "Point", "coordinates": [ 5.9957494, 45.3015475 ] } },
{ "type": "Feature", "properties": { "osm_id": "4240707328", "code": 1003, "fclass": "village", "population": 0, "name": "Saint-Jean-d'Hérans" }, "geometry": { "type": "Point", "coordinates": [ 5.7610485, 44.8532944 ] } },
{ "type": "Feature", "properties": { "osm_id": "6426534992", "code": 1003, "fclass": "village", "population": 409, "name": "Le Haut-Bréda" }, "geometry": { "type": "Point", "coordinates": [ 6.0866978, 45.3232851 ] } },
{ "type": "Feature", "properties": { "osm_id": "6426621705", "code": 1003, "fclass": "village", "population": 0, "name": "Chantepérier" }, "geometry": { "type": "Point", "coordinates": [ 5.9614561, 44.9651886 ] } },
{ "type": "Feature", "properties": { "osm_id": "6426624586", "code": 1003, "fclass": "village", "population": 0, "name": "Plateau-des-Petites-Roches" }, "geometry": { "type": "Point", "coordinates": [ 5.8811206, 45.3109829 ] } }
]
}
